stop_lat,stop_lon,stop_id,parent_station,stop_name,location_type
35.655376,-5.319315,node/8197477238,,Colinord,0
35.659783,-5.318902,node/8197477239,,Jamae,0
35.555249,-5.376743,node/8171402908,,Saf Al Hamam 2,0
35.569565,-5.420434,node/8171402909,,Torreta,0
35.640204,-5.323234,node/8171402906,,El Filaha,0
35.559767,-5.436430,node/8171402907,,Dechrien,0
35.434660,-5.391190,node/8171402904,,Enissar Joue,0
35.556230,-5.416300,node/8171402905,,Tamuda,0
35.573727,-5.402497,node/8171402902,,Mosquée El Aela,0
35.482558,-5.411590,node/8171402903,,El Ksab,0
35.564925,-5.420797,node/8171402900,,Louziyen,0
35.567701,-5.336648,node/8171402901,,El Manar,0
35.571735,-5.358860,node/6897145456,,Abdelkhalek Torres - Esso,0
35.548441,-5.371806,node/8197188244,,Bouanane,0
35.550748,-5.363612,node/8197188240,,Mgaz Lhjar 1,0
35.552356,-5.365564,node/8197188241,,Mgaz Lhjar 2,0
35.550300,-5.369056,node/8197188242,,Torreta,0
35.548426,-5.371899,node/8197188243,,Bouanane,0
35.548041,-5.423081,node/8197425134,,Borojo,0
35.532064,-5.428664,node/8197425135,,Dar El Khayat,0
35.503819,-5.435828,node/8197425136,,El Akba,0
35.497353,-5.434183,node/8197425137,,Aboudi,0
35.495098,-5.428438,node/8197425138,,Ain Aicha,0
35.491718,-5.423662,node/8197425139,,Ben Dakoo,0
35.577116,-5.362675,node/8188220753,,Souk Ziana,0
35.636839,-5.324360,node/8197477234,,Rayhana,0
35.575549,-5.408550,node/6898562579,,Résidence El Wikaya,0
35.640414,-5.323393,node/8197477235,,El Filaha,0
35.726499,-5.340236,node/8197552108,,Kabila 2,0
35.586204,-5.337336,node/6907296517,,Ecole Mohamed Aziman,0
35.645107,-5.322143,node/8197477236,,Campo,0
35.735799,-5.342122,node/8197552109,,Sania,0
35.649966,-5.320841,node/8197477237,,Ghniwat,0
35.580984,-5.353034,node/6900317725,,Avenue Des Far - Safir,0
35.626170,-5.331380,node/6900317724,,Mandi,0
35.626566,-5.341542,node/6900317722,,Mallalienne,0
35.631006,-5.325957,node/8197477233,,Sdouki,0
35.448285,-5.093499,node/8242995661,,Brigade-Gendarmerie,0
35.566334,-5.366534,node/8242995663,,Ancienne Gare,0
35.448363,-5.093653,node/8242995662,,Brigade-Gendarmerie,0
35.593188,-5.332191,node/6904040653,,I.T.A,0
35.569302,-5.382160,node/6899235256,,Clinique Nakhil,0
35.556821,-5.404320,node/6903918966,,Lafarge,0
35.553101,-5.360102,node/8171441749,,Jamaat Zitoune,0
35.821607,-5.353755,node/8171441748,,Rifiyenne,0
35.573529,-5.379548,node/6903993083,,Diour Lahjar,0
35.559311,-5.461384,node/8171441740,,Trik,0
35.439914,-5.391070,node/8171441743,,Café Ayad,0
35.456710,-5.095850,node/8171441742,,Café Dakhla,0
35.556241,-5.392253,node/8171441745,,Zariaa,0
35.574980,-5.391325,node/8171441744,,Snack Loujdi,0
35.553203,-5.399034,node/8171441747,,Amina Bent Wahab,0
35.574463,-5.383343,node/6903993084,,Souk El Fahm,0
35.612241,-5.287572,node/6897145301,,Chonbira,0
35.624908,-5.327287,node/6900317866,,Rp El Mallalienne,0
35.507641,-5.425515,node/6899183589,,Beni Karrich,0
35.578908,-5.349217,node/6907371680,,Pharmacie Afassi,0
35.632450,-5.500783,node/6898279984,,Zouada,0
35.580995,-5.360672,node/8171402889,,Haj Mohamed Bennouna 1,0
35.576610,-5.340760,node/8171402888,,Nada,0
35.613189,-5.332723,node/8171402887,,Koudia,0
35.564810,-5.347428,node/8171402886,,Grt Coelma,0
35.607790,-5.297490,node/8171402885,,Oum Keltoum,0
35.807390,-5.352609,node/8171402884,,Fadesa,0
35.637019,-5.324041,node/8171402883,,Rayhana,0
35.571589,-5.418826,node/8171402882,,Nassim,0
35.841309,-5.354975,node/8171402881,,Fnideq,0
35.532034,-5.428877,node/8171402880,,Dar El Khayat,0
35.567478,-5.365786,node/6903988259,,Casa Bloque,0
35.550347,-5.369092,node/6903988254,,Torreta,0
35.598447,-5.481881,node/8196766607,,Lafarge,0
35.593743,-5.477583,node/8196766606,,Bounazzal 2,0
35.590860,-5.475178,node/8196766605,,Bounazzal 1,0
35.583624,-5.470700,node/8196766604,,Piste Lawta,0
35.573931,-5.466853,node/8196766603,,Usine De Carreaux,0
35.596147,-5.328553,node/8188220747,,Cité Universitaire,0
35.565462,-5.461584,node/8196766601,,Maison Renault,0
35.591093,-5.334134,node/8188220745,,Aéroport,0
35.574079,-5.348790,node/6897145541,,Terrain Saniat Rmel,0
35.592358,-5.339615,node/8188220749,,Mohamed El Yazidi,0
35.612471,-5.492895,node/8196766609,,Machachates,0
35.604676,-5.484319,node/8196766608,,Rwida,0
35.638405,-5.446945,node/6898503457,,Laalaouia,0
35.574064,-5.396166,node/8196047483,,Jamaa Mezouak,0
35.566288,-5.366464,node/8196047482,,Ancienne Gare,0
35.638389,-5.447000,node/8196909139,,Laalaouia,0
35.318969,-5.356677,node/6899208014,,Beni Hassan,0
35.594573,-5.347823,node/8188018836,,Bennouna Boussafou,0
35.576656,-5.410818,node/8191229022,,Mosquée El Kabdani,0
35.570268,-5.401683,node/8191229020,,Pharmacie 2000,0
35.575509,-5.408586,node/8191229021,,Résidence El Wikaya,0
35.578472,-5.361365,node/8188220737,,Mohamed Al Kharaz 1,0
35.577140,-5.362725,node/8188220736,,Souk Ziana,0
35.575470,-5.363354,node/8188220735,,Ziana,0
35.573161,-5.363073,node/8188220734,,Bab Saida,0
35.570453,-5.363464,node/8188220733,,Bab El Okla,0
35.558152,-5.412594,node/6899170969,,Grt Louha,0
35.581648,-5.356167,node/8188220739,,Mohamed Al Kharaz 3,0
35.579394,-5.358960,node/8188220738,,Mohamed Al Kharaz 2,0
35.602661,-5.336157,node/6900317890,,Marjane,0
35.555183,-5.378905,node/6899234179,,Saf Al Hamam 1,0
35.579146,-5.362099,node/8188287499,,Cheikh Ben Larbi Alaoui,0
35.580936,-5.360593,node/8188287498,,Haj Mohamed Bennouna 1,0
35.588890,-5.358480,node/8188287495,,Mokhtar Soussi,0
35.583598,-5.358729,node/8188287497,,Haj Mohamed Bennouna 2,0
35.565084,-5.368615,node/6899069778,,Aakbat El Halouf 1,0
35.583652,-5.358815,node/6910361864,,Haj Mohamed Bennouna 2,0
35.585394,-5.358776,node/6910361862,,Fatima Al Fihria,0
35.588895,-5.358506,node/6910361863,,Mokhtar Soussi,0
35.588710,-5.324263,node/6897143972,,Palais Riad,0
35.429415,-5.117479,node/8196697930,,El Contro,0
35.423066,-5.121831,node/8196697931,,Oued Laou,0
35.548172,-5.554703,node/6906735333,,Ain Lahcen,0
35.567044,-5.407162,node/6906735337,,Abattoirs,0
35.414230,-5.384613,node/8197425149,,Café El Mrabet,0
35.423467,-5.392225,node/8197425148,,Kchoue,0
35.482658,-5.411471,node/8197425141,,El Ksab,0
35.487016,-5.419917,node/8197425140,,Barrage Martil,0
35.460207,-5.404484,node/8197425143,,Moulay Abdessalam,0
35.470438,-5.402815,node/8197425142,,Zinat,0
35.447078,-5.393680,node/8197425145,,Café Sed,0
35.451157,-5.396420,node/8197425144,,Barrage Nakhla,0
35.434666,-5.391051,node/8197425147,,Enissar Joue,0
35.439860,-5.390919,node/8197425146,,Café Ayad,0
35.565229,-5.356535,node/8196235920,,Casablanca 2,0
35.470403,-5.402961,node/6899167636,,Zinat,0
35.627468,-5.281391,node/6897143977,,Dalia,0
35.486850,-5.420065,node/6899167639,,Barrage Martil,0
35.583209,-5.332224,node/8154841013,,9 Avril,0
35.569629,-5.383448,node/4613737391,,Lycée Jaber Ibnou Hayane,0
35.560486,-5.371018,node/566450850,,Gare Routière,0
35.573960,-5.396200,node/6904008880,,Jamaa Mezouak,0
35.575332,-5.349415,node/6904040664,,Kaboul - Tekniya,0
35.589811,-5.338175,node/6904040661,,Wilaya,0
35.565304,-5.412072,node/6898279955,,La Paloma,0
35.429497,-5.117541,node/6899394734,,El Contro,0
35.598560,-5.481817,node/6898279952,,Lafarge,0
35.559332,-5.500544,node/6906735239,,El Manar,0
35.576686,-5.410808,node/6898503413,,Mosquée El Kabdani,0
35.547759,-5.398324,node/8191086261,,Dar Zkiek,0
35.565477,-5.392411,node/8191086260,,Rommana,0
35.761213,-5.348490,node/1872002938,,Marina 2,0
35.570530,-5.383038,node/8191086267,,Dar Takafa,0
35.573504,-5.379584,node/8193863893,,Diour Lahjar,0
35.574426,-5.383345,node/8193863895,,Souk El Fahm,0
35.574612,-5.381365,node/8193863894,,Abdelkrim El Khattabi - Poste Maroc,0
35.574661,-5.389826,node/8193863897,,Cafe Terasa,0
35.574332,-5.386566,node/8193863896,,Cinéma Victoria,0
35.575256,-5.393810,node/8193863899,,Palais Essalam,0
35.574949,-5.391305,node/8193863898,,Snack Loujdi,0
35.555312,-5.401269,node/8241120138,,Lotissement Wikaya,0
35.569965,-5.399380,node/8191186415,,Ecole Chouhadae,0
35.571277,-5.400079,node/8191186414,,Bni Khanous 1,0
35.570254,-5.401650,node/8191186416,,Pharmacie 2000,0
35.574707,-5.405168,node/8191186411,,Résidence Jardin Taboula,0
35.572852,-5.401154,node/8191186413,,Bni Khanous 2,0
35.604736,-5.484145,node/6898280314,,Rwida,0
35.676779,-5.321396,node/2134361984,,Gorna,0
35.562623,-5.363179,node/8196161705,,Faculté Des Sciences,0
35.632402,-5.500971,node/8196766611,,Zouada,0
35.564760,-5.352418,node/8196161707,,Abdellah El Fakhar - Afriquia,0
35.597102,-5.430469,node/8196909141,,Lafarge,0
35.620359,-5.452765,node/8196909140,,Seddina,0
35.570389,-5.404155,node/8196909143,,Gorna Abattoirs,0
35.572600,-5.404754,node/8196909142,,Orangina,0
35.566595,-5.401635,node/6898570087,,Koudia,0
35.570580,-5.383003,node/6898570089,,Dar Takafa,0
35.519675,-5.176646,node/8171402876,,Tamernout,0
35.562943,-5.428942,node/8171402877,,Soussi,0
35.567301,-5.421858,node/8171402874,,Prison Locale,0
35.583677,-5.470453,node/8171402875,,Piste Lawta,0
35.568348,-5.402244,node/8191229017,,Résidence Yassmine,0
35.482682,-5.124549,node/8171402878,,Tamgart,0
35.436260,-5.108442,node/8171402879,,Riyasna,0
35.565183,-5.397679,node/6898280222,,Marché De Gros,0
35.576503,-5.350236,node/8191355105,,Ecole Omar Ibn Abdelaziz,0
35.620427,-5.452721,node/6898503606,,Seddina,0
35.569535,-5.420415,node/8191149533,,Torreta,0
35.587440,-5.337648,node/6904096997,,Mosquée Mohammed VI,0
35.571561,-5.418817,node/8191149531,,Nassim,0
35.574739,-5.405158,node/6898562582,,Résidence Jardin Taboula,0
35.565049,-5.421433,node/8191149535,,Louziyen,0
35.567285,-5.421844,node/8191149534,,Prison Locale,0
35.581585,-5.356120,node/6900310858,,Mohamed Al Kharaz 3,0
35.620740,-5.329086,node/6900317732,,R'Milat,0
35.487865,-5.135481,node/8196697922,,Abita,0
35.567302,-5.406294,node/6906735263,,Abattoirs,0
35.408858,-5.379389,node/8171441756,,Mrija,0
35.497170,-5.434490,node/8171441757,,Aboudi,0
35.574726,-5.345031,node/8171441754,,Cnss,0
35.590947,-5.475114,node/8171441755,,Bounazzal 1,0
35.572269,-5.263645,node/8171441752,,Sidi Abdeslam,0
35.580790,-5.364003,node/8171441753,,Mosquée Ben Aboud,0
35.795942,-5.356136,node/8171441750,,El Amin,0
35.609726,-5.293906,node/8171441751,,Faculté De Lettres,0
35.698887,-5.331620,node/8197552106,,Holiday,0
35.719929,-5.338139,node/8197552107,,Kabila,0
35.491558,-5.423818,node/8171441758,,Ben Dakoo,0
35.487884,-5.135705,node/8171441759,,Abita,0
35.548190,-5.423283,node/6899183595,,Borojo,0
35.583708,-5.342419,node/6907371690,,Ain Maloul,0
35.577010,-5.307240,node/8171441741,,Jamae,0
35.572284,-5.359749,node/7807273021,,Avenue Des Far,0
35.795902,-5.356402,node/8197552116,,El Amin,0
35.557931,-5.408660,node/6899183692,,Route De Torreta,0
35.503543,-5.436051,node/6899183691,,El Akba,0
35.787471,-5.353586,node/8197552115,,Al Mina,0
35.778058,-5.348592,node/8197552114,,Grand Hôtel,0
35.367730,-5.373590,node/8171402898,,Berraka,0
35.612300,-5.492454,node/8171402899,,Machachates,0
35.559759,-5.445002,node/8171402894,,Grankha,0
35.698959,-5.331394,node/8171402895,,Holiday,0
35.463460,-5.100193,node/8171402896,,Mkad,0
35.338660,-5.363640,node/8171402897,,Krouche,0
35.569583,-5.330760,node/8171402890,,Fabrique Rbahi,0
35.682789,-5.320755,node/8171402891,,El Marssa,0
35.565059,-5.344990,node/8171402892,,Coelma,0
35.346700,-5.367590,node/8171402893,,Halhala,0
35.726573,-5.340057,node/8171402912,,Kabila 2,0
35.749675,-5.346527,node/8197552111,,Marina Smir,0
35.742135,-5.343990,node/8197552110,,Studio,0
35.626048,-5.331464,node/8196996387,,Mandi,0
35.626427,-5.341327,node/8196996386,,Mallalienne,0
35.578935,-5.363813,node/6907522588,,Touilaa 2,0
35.620942,-5.495824,node/8196766610,,Souk Lakdim,0
35.566336,-5.360124,node/8241076241,,Casablanca 1,0
35.664399,-5.510764,node/8196766612,,Kmis Anjra,0
35.565278,-5.356494,node/8196161706,,Casablanca 2,0
35.565129,-5.345068,node/8196161709,,Coelma,0
35.564880,-5.347425,node/8196161708,,Grt Coelma,0
35.578340,-5.361319,node/6907522587,,Mohamed Al Kharaz 1,0
35.597237,-5.430764,node/6898503462,,Lafarge,0
35.787674,-5.353489,node/4066473836,,Al Mina,0
35.754740,-5.347181,node/1872002247,,Marina,0
35.572543,-5.355339,node/8191355103,,Hopital Civil,0
35.565570,-5.398466,node/6898280186,,Marché De Gros,0
35.573063,-5.353440,node/8191355104,,Mosquée Al Oumma,0
35.578953,-5.349241,node/8191355107,,Pharmacie Afassi,0
35.577955,-5.350742,node/8191355106,,Résidence El Manar,0
35.580137,-5.345096,node/8191355109,,Supermarché Taw,0
35.579859,-5.346515,node/8191355108,,Etablissement Tofola,0
35.553950,-5.354991,node/8197188237,,Kharrouba,0
35.556994,-5.352396,node/8197188236,,Ettoub,0
35.570126,-5.387292,node/4613785689,,Souk Al Imam Malik,0
35.571474,-5.421014,node/8171441785,,Malik Ibn Dirar - Mosquée,0
35.650002,-5.320593,node/8171441784,,Ghniwat,0
35.572841,-5.401187,node/8171441781,,Bni Khanous 2,0
35.571261,-5.400130,node/8171441780,,Bni Khanous 1,0
35.557216,-5.383532,node/6899234168,,Pharmacie Rkaina,0
35.655375,-5.319148,node/8171441782,,Colinord,0
35.574001,-5.348838,node/8197637225,,Terrain Saniat Rmel,0
35.576680,-5.340899,node/8197637227,,Nada,0
35.574810,-5.345114,node/8197637226,,Cnss,0
35.572956,-5.353450,node/6897145480,,Mosquée Al Oumma,0
35.620744,-5.329353,node/8196133395,,R'Milat,0
35.613488,-5.332836,node/8196133394,,Koudia,0
35.624778,-5.327619,node/8196133396,,Rp El Mallalienne,0
35.607900,-5.334637,node/8196133393,,Setine 60,0
35.602808,-5.336288,node/8196133392,,Marjane,0
35.567884,-5.373598,node/4613737094,,Jardin Chellal,0
35.550705,-5.360770,node/8197188239,,Beni Salah,0
35.553034,-5.360020,node/8197188238,,Jamaat Zitoune,0
35.338763,-5.363328,node/8197425156,,Krouche,0
35.563297,-5.489985,node/6906735221,,Barrage,0
35.582317,-5.364196,node/8171441718,,Teffaline,0
35.346769,-5.367269,node/8197425155,,Halhala,0
35.377640,-5.374433,node/8197425152,,Koades,0
35.367732,-5.373404,node/8197425153,,Berraka,0
35.409021,-5.379350,node/8197425150,,Mrija,0
35.388496,-5.373182,node/8197425151,,Beni Moussa,0
35.460200,-5.404593,node/8171441717,,Moulay Abdessalam,0
35.318981,-5.356811,node/8197425158,,Beni Hassan,0
35.559524,-5.350065,node/8197188235,,Mosquée Boujdad,0
35.841411,-5.355107,node/8197563720,,Fnideq,0
35.676786,-5.321549,node/8197477241,,Gorna,0
35.666808,-5.318495,node/8197477240,,Krouche,0
35.685441,-5.322959,node/8197477243,,M'Diq,0
35.682764,-5.320919,node/8197477242,,El Marssa,0
35.549853,-5.397175,node/6903919029,,Ain Dar Zkiek,0
35.565163,-5.401229,node/6903919028,,Taboula,0
35.603206,-5.341488,node/6907472790,,Hjar Laaroussa,0
35.597047,-5.343409,node/6907472792,,Mohamed Smaili,0
35.574385,-5.386553,node/6903993072,,Cinéma Victoria,0
35.583004,-5.333021,node/8197637229,,9 Avril,0
35.585008,-5.354180,node/8188018841,,Boujarrah,0
35.580525,-5.336839,node/8197637228,,Faculté Ossoul-Eddine,0
35.586249,-5.337375,node/8191355112,,Ecole Mohamed Aziman,0
35.596090,-5.328517,node/6904040671,,Cité Universitaire,0
35.573984,-5.466697,node/6898280162,,Usine De Carreaux,0
35.587419,-5.337775,node/8191355113,,Mosquée Mohammed VI,0
35.577954,-5.350707,node/6907371725,,Résidence El Manar,0
35.583036,-5.343889,node/8191355110,,Café Warda,0
35.414368,-5.384466,node/8171441769,,Café El Mrabet,0
35.332640,-5.360490,node/8171441768,,Jamae,0
35.561124,-5.473662,node/8171441767,,El Harcha,0
35.600822,-5.304363,node/8171441766,,Zone Industrielle,0
35.583897,-5.365275,node/8171441765,,Ksar El Khalifa,0
35.591486,-5.353650,node/8171441764,,Boujarrah 2,0
35.660093,-5.318609,node/8171441763,,Jamae,0
35.547072,-5.235696,node/8171441762,,Kae El Mejri,0
35.766370,-5.348635,node/8171441761,,Restinga,0
35.550764,-5.360733,node/8171441760,,Beni Salah,0
35.452116,-5.093082,node/6899394694,,Oued Laou,0
35.580337,-5.336859,node/6897145457,,Faculté Ossoul-Eddine,0
35.562339,-5.362924,node/6899394696,,Faculté Des Sciences,0
35.550609,-5.242701,node/6899394691,,Azla,0
35.559195,-5.384653,node/8171441783,,Bourras,0
35.587709,-5.355690,node/8188018840,,Boujarrah 3,0
35.613580,-5.283642,node/6897145353,,Café Bohour,0
35.559135,-5.461429,node/8196758071,,Trik,0
35.560172,-5.467919,node/8196758070,,Sahtrienne,0
35.559591,-5.444970,node/8196758073,,Grankha,0
35.557803,-5.453436,node/8196758072,,Khmis,0
35.561165,-5.433045,node/8196758075,,Traksat,0
35.559556,-5.436518,node/8196758074,,Dechrien,0
35.562725,-5.429261,node/8196758076,,Soussi,0
35.565917,-5.393037,node/8188220760,,Rif (Rommana),0
35.574675,-5.389792,node/8193863905,,Cafe Terasa,0
35.575913,-5.396394,node/8193863904,,Pharmacie Semsa,0
35.591366,-5.406244,node/8193863903,,Ain Semsa,0
35.582229,-5.401253,node/8193863902,,Route Semsa 2,0
35.578587,-5.399456,node/8193863901,,Route Semsa,0
35.575853,-5.396441,node/8193863900,,Pharmacie Semsa,0
35.573734,-5.402490,node/8191186412,,Mosquée El Aela,0
35.570380,-5.403960,node/6898570092,,Gorna Abattoirs,0
35.565491,-5.392422,node/8191086259,,Rommana,0
35.742130,-5.343779,node/2134361904,,Studio,0
35.585949,-5.350889,node/8188220742,,Afka,0
35.586609,-5.349218,node/8188220743,,Jbel Atlas,0
35.583863,-5.352417,node/8188220740,,Mohamed Al Kharaz 4,0
35.592241,-5.359168,node/6907541829,,Kallaline,0
35.584993,-5.352177,node/8188220741,,Jbel Toubkal,0
35.593126,-5.332238,node/8188220746,,I.T.A,0
35.568396,-5.464807,node/8196766602,,Poste Electricité,0
35.592501,-5.339873,node/8188220744,,Mohamed El Yazidi,0
35.563107,-5.460258,node/8196766600,,Bousfiha,0
35.578154,-5.356204,node/6900310862,,Avenue Des Far - Rettaha,0
35.594675,-5.347742,node/6907426185,,Bennouna Boussafou,0
35.585068,-5.354026,node/6907426186,,Boujarrah,0
35.597995,-5.324634,node/8188220748,,Avenue D'Egypte,0
35.557626,-5.386072,node/8196137649,,Boulangerie El Morabet,0
35.559150,-5.384670,node/8196137648,,Bourras,0
35.557213,-5.383657,node/8196137647,,Pharmacie Rkaina,0
35.555401,-5.381268,node/8196137646,,Les Jardins d'Andalous,0
35.555105,-5.378878,node/8196137645,,Saf Al Hamam 1,0
35.555207,-5.376708,node/8196137644,,Saf Al Hamam 2,0
35.560451,-5.370855,node/8196137643,,Gare Routière,0
35.562967,-5.368621,node/8196137642,,Aakbat El Halouf 2,0
35.565013,-5.368506,node/8196137641,,Aakbat El Halouf 1,0
35.529766,-5.197137,node/8196697918,,Tamrabet,0
35.537633,-5.213313,node/8196697917,,Campigne,0
35.568433,-5.464720,node/6898257881,,Poste Electricité,0
35.388523,-5.373295,node/8171441723,,Beni Moussa,0
35.537440,-5.213370,node/8171441722,,Campigne,0
35.666621,-5.318050,node/8171441721,,Krouche,0
35.561427,-5.432971,node/8171441720,,Traksat,0
35.557060,-5.352510,node/8171441727,,Ettoub,0
35.563412,-5.249671,node/8171441726,,Chwabel,0
35.554031,-5.355025,node/8171441725,,Kharrouba,0
35.614930,-5.279380,node/8171441724,,Chomouae,0
35.580674,-5.290164,node/8171441729,,El Kharrouba,0
35.837275,-5.355397,node/8171441728,,Kondisa,0
35.565100,-5.414894,node/6898280152,,Nakkata,0
35.579814,-5.346481,node/6907340451,,Etablissement Tofola,0
35.578971,-5.363762,node/8193820478,,Touilaa 2,0
35.589433,-5.361484,node/8193820479,,El Kariane,0
35.575288,-5.393783,node/6903993049,,Palais Essalam,0
35.589451,-5.361439,node/8193820473,,El Kariane,0
35.582342,-5.364158,node/8193820476,,Teffaline,0
35.580775,-5.363938,node/8193820477,,Mosquée Ben Aboud,0
35.586558,-5.368023,node/8193820474,,Aakbat Chata,0
35.583909,-5.365247,node/8193820475,,Ksar El Khalifa,0
35.549631,-5.522785,node/6906735407,,Spirada,0
35.600107,-5.340587,node/8193747823,,Jnan El Haouzi,0
35.597098,-5.343476,node/8193747822,,Mohamed Smaili,0
35.720161,-5.337997,node/2134361957,,Kabila,0
35.603177,-5.341593,node/8193747824,,Hjar Laaroussa,0
35.506245,-5.439104,node/8243333384,,Ben Karrich,0
35.506503,-5.439036,node/8243333383,,Ben Karrich,0
35.565936,-5.367116,node/8243333382,,Ancienne Gare,0
35.591397,-5.353571,node/8188018839,,Boujarrah 2,0
35.593131,-5.350591,node/8188018838,,Boujarrah 1,0
35.581029,-5.353208,node/8188018831,,Avenue Des Far - Safir,0
35.578267,-5.356329,node/8188018830,,Avenue Des Far - Rettaha,0
35.589633,-5.345250,node/8188018833,,Avenue Des Far - Wilaya,0
35.586158,-5.347754,node/8188018832,,Avenue Des Far - Rif,0
35.593516,-5.345871,node/8188018835,,Boussafou,0
35.592243,-5.343123,node/8188018834,,Avenue Des Far - El Yazidi,0
35.593005,-5.350566,node/8188018837,,Boujarrah 1,0
35.568670,-5.361224,node/6900317845,,Lycée Charif Al Idrissi,0
35.566008,-5.367108,node/6899069744,,Ancienne Gare,0
35.615108,-5.279625,node/8197637236,,Chomouae,0
35.617984,-5.275194,node/8197637237,,Ens,0
35.612383,-5.287722,node/8197637234,,Chonbira,0
35.613764,-5.283764,node/8197637235,,Café Bohour,0
35.607940,-5.297740,node/8197637232,,Oum Keltoum,0
35.609848,-5.294097,node/8197637233,,Faculté De Lettres,0
35.588406,-5.324956,node/8197637230,,Palais Riad,0
35.601027,-5.304776,node/8197637231,,Zone Industrielle,0
35.526575,-5.230782,node/6899394732,,Amssa,0
35.449210,-5.091640,node/6899394731,,Mssala,0
35.591374,-5.406174,node/6903992628,,Ain Semsa,0
35.619148,-5.273048,node/8197637238,,Miramar,0
35.624818,-5.274817,node/8197637239,,Chbar,0
35.568364,-5.402299,node/8191229019,,Résidence Yassmine,0
35.566638,-5.401596,node/8191229018,,Koudia,0
35.550651,-5.242552,node/8196161716,,Azla,0
35.572429,-5.263489,node/8196161714,,Sidi Abdeslam,0
35.563485,-5.249601,node/8196161715,,Chwabel,0
35.577263,-5.307382,node/8196161712,,Jamae,0
35.580848,-5.290252,node/8196161713,,El Kharrouba,0
35.567810,-5.336610,node/8196161710,,El Manar,0
35.569693,-5.330776,node/8196161711,,Fabrique Rbahi,0
35.332691,-5.360203,node/8197425157,,Jamae,0
35.620932,-5.495715,node/6898280082,,Souk Lakdim,0
35.356061,-5.370735,node/8197425154,,El Kharrouba,0
35.569995,-5.399374,node/8171402911,,Ecole Chouhadae,0
35.451280,-5.396582,node/8171402910,,Barrage Nakhla,0
35.529737,-5.196800,node/8171402913,,Tamrabet,0
35.555740,-5.505167,node/8171441719,,Chtab,0
35.559579,-5.350142,node/8171402915,,Mosquée Boujdad,0
35.685533,-5.322794,node/8171402914,,M'Diq,0
35.556751,-5.388947,node/8171402916,,Tahen,0
35.807539,-5.352776,node/8197563717,,Fadesa,0
35.589784,-5.338312,node/8191355114,,Wilaya,0
35.837243,-5.355542,node/8197563719,,Kondisa,0
35.821449,-5.353968,node/8197563718,,Rifiyenne,0
35.508275,-5.156796,node/8171441746,,Awchtam,0
35.583718,-5.342579,node/8191355111,,Ain Maloul,0
35.565404,-5.401491,node/6903919030,,Taboula,0
35.578590,-5.399300,node/6904026495,,Route Semsa,0
35.600103,-5.340555,node/6907472786,,Jnan El Haouzi,0
35.583811,-5.352335,node/6900317691,,Mohamed Al Kharaz 4,0
35.598036,-5.324566,node/6904040683,,Avenue D'Egypte,0
35.560392,-5.467883,node/6906735360,,Sahtrienne,0
35.576522,-5.350217,node/6907371653,,Ecole Omar Ibn Abdelaziz,0
35.582294,-5.401123,node/8171441778,,Route Semsa 2,0
35.356010,-5.370990,node/8171441779,,El Kharrouba,0
35.377681,-5.374583,node/8171441774,,Koades,0
35.630990,-5.325693,node/8171441775,,Sdouki,0
35.477174,-5.117107,node/8171441776,,Khandak De Riyas,0
35.563119,-5.460117,node/8171441777,,Bousfiha,0
35.645110,-5.321922,node/8171441770,,Campo,0
35.552675,-5.513377,node/8171441771,,El Hjar,0
35.586560,-5.368067,node/8171441772,,Aakbat Chata,0
35.494786,-5.428433,node/8171441773,,Ain Aicha,0
35.566775,-5.366529,node/6900317884,,Ancienne Gare,0
35.585879,-5.350885,node/6900317881,,Afka,0
35.559582,-5.499769,node/8196758066,,El Manar,0
35.563204,-5.489351,node/8196758067,,Barrage,0
35.552358,-5.513264,node/8196758064,,El Hjar,0
35.555608,-5.504848,node/8196758065,,Chtab,0
35.548062,-5.554630,node/8196758062,,Ain Lahcen,0
35.549481,-5.522715,node/8196758063,,Spirada,0
35.572204,-5.359894,node/8188018829,,Avenue Des Far,0
35.561557,-5.481663,node/8196758068,,Boukhari,0
35.560930,-5.473667,node/8196758069,,El Harcha,0
35.573204,-5.363032,node/8188220755,,Bab Saida,0
35.575463,-5.363289,node/8188220754,,Ziana,0
35.567574,-5.365848,node/8188220757,,Casa Bloque,0
35.570403,-5.363421,node/8188220756,,Bab El Okla,0
35.585042,-5.352091,node/8188220751,,Jbel Toubkal,0
35.586560,-5.349266,node/8188220750,,Jbel Atlas,0
35.589631,-5.345100,node/6900317909,,Avenue Des Far - Wilaya,0
35.579334,-5.358900,node/8188220752,,Mohamed Al Kharaz 2,0
35.600600,-5.326755,node/8188220759,,Lot Souani (Place Palestine),0
35.567033,-5.369037,node/8188220758,,Jardin Moulay Rachid,0
35.566260,-5.360151,node/8241076240,,Casablanca 1,0
35.619198,-5.272936,node/6897145384,,Miramar,0
35.571460,-5.420993,node/8191149532,,Malik Ibn Dirar - Mosquée,0
35.552231,-5.367492,node/8241076237,,Mgaz Lhjar 3,0
35.563560,-5.349625,node/8241076239,,Coelma,0
35.563689,-5.349481,node/8241076238,,Coelma,0
35.565248,-5.414973,node/8191149536,,Nakkata,0
35.572571,-5.404657,node/6898562580,,Orangina,0
35.568464,-5.388939,node/6539347336,,Avenue Moulay Al Hassan Belmehdi,0
35.562961,-5.368759,node/6899394700,,Aakbat El Halouf 2,0
35.564595,-5.352505,node/6899394709,,Abdellah El Fakhar - Afriquia,0
35.569048,-5.362782,node/8241076243,,Ksar El Kebir - Bab El Okla,0
35.593616,-5.346002,node/6907426190,,Boussafou,0
35.608204,-5.334402,node/6900317719,,Setine 60,0
35.556109,-5.416231,node/8196137654,,Tamuda,0
35.555443,-5.381235,node/8196137655,,Les Jardins d'Andalous,0
35.556665,-5.388888,node/8196137650,,Tahen,0
35.556139,-5.392222,node/8196137651,,Zariaa,0
35.555417,-5.401276,node/8196137652,,Lotissement Wikaya,0
35.556790,-5.404363,node/8196137653,,Lafarge,0
35.436107,-5.108273,node/8196697929,,Riyasna,0
35.449155,-5.091618,node/8196697928,,Mssala,0
35.569452,-5.363589,node/8244881546,,Bab El Okla,0
35.508457,-5.156709,node/8196697921,,Awchtam,0
35.519807,-5.176743,node/8196697920,,Tamernout,0
35.482819,-5.124439,node/8196697923,,Tamgart,0
35.735958,-5.341975,node/6894216890,,Sania,0
35.463512,-5.100061,node/8196697925,,Mkad,0
35.477304,-5.116953,node/8196697924,,Khandak De Riyas,0
35.452149,-5.093021,node/8196697927,,Oued Laou,0
35.456800,-5.095654,node/8196697926,,Café Dakhla,0
35.569378,-5.363528,node/6897143980,,Bab El Okla,0
35.558019,-5.453507,node/8171441730,,Khmis,0
35.544971,-5.225513,node/8171441731,,Senssla,0
35.615521,-5.275111,node/8171441732,,Borj,0
35.547119,-5.235587,node/8196235917,,Kae El Mejri,0
35.423453,-5.392396,node/8171441734,,Kchoue,0
35.550818,-5.363524,node/8171441735,,Mgaz Lhjar 1,0
35.552471,-5.365588,node/8171441736,,Mgaz Lhjar 2,0
35.557701,-5.386178,node/8171441737,,Boulangerie El Morabet,0
35.561700,-5.481418,node/8171441738,,Boukhari,0
35.565650,-5.461520,node/8171441739,,Maison Renault,0
35.544992,-5.225421,node/8196235918,,Senssla,0
35.526698,-5.230593,node/8196235919,,Amssa,0
35.582914,-5.343826,node/6907393004,,Café Warda,0
35.574645,-5.381371,node/6903993053,,Abdelkrim El Khattabi - Poste Maroc,0
35.585418,-5.358744,node/8188287496,,Fatima Al Fihria,0
35.572452,-5.387677,node/6904008870,,Hôpital Espagnol,0
35.572803,-5.380903,node/6904008875,,Lycée Cadi Ayad,0
35.580041,-5.345082,node/6907371629,,Supermarché Taw,0
35.591007,-5.334067,node/6904097002,,Aéroport,0
35.664526,-5.510734,node/6898279962,,Kmis Anjra,0
35.579127,-5.362172,node/8188287501,,Cheikh Ben Larbi Alaoui,0
35.624930,-5.274700,node/6897145472,,Chbar,0
35.586294,-5.347391,node/6900317820,,Avenue Des Far - Rif,0
35.565662,-5.411768,node/8191086258,,Afriquia - Mly Hassan Bel Mehdi,0
35.600447,-5.326428,node/6904040672,,Lot Souani (Place Palestine),0
35.549828,-5.397225,node/8191086254,,Ain Dar Zkiek,0
35.553171,-5.399117,node/8191086255,,Amina Bent Wahab,0
35.557842,-5.408684,node/8191086256,,Route De Torreta,0
35.558156,-5.412668,node/8191086257,,Grt Louha,0
35.547776,-5.398373,node/8191086253,,Dar Zkiek,0
35.568073,-5.373799,node/8188018826,,Jardin Chellal,0
35.565745,-5.368628,node/8188018827,,Mekki Nassiri - Aakbat El Halouf,0
35.565907,-5.392980,node/8188018824,,Rif (Rommana),0
35.568516,-5.388997,node/8188018825,,Avenue Moulay Al Hassan Belmehdi,0
35.749857,-5.346183,node/1872003113,,Marina Smir,0
35.568738,-5.361292,node/8188018828,,Lycée Charif Al Idrissi,0
35.753480,-5.346425,node/1872003110,,Marina,0
35.592158,-5.342964,node/6900317767,,Avenue Des Far - El Yazidi,0
35.630944,-5.284525,node/6897145507,,Ahrik,0
35.766193,-5.348808,node/8197552113,,Restinga,0
35.630879,-5.284634,node/8197637241,,Ahrik,0
35.627392,-5.281501,node/8197637240,,Dalia,0
35.593846,-5.477410,node/6898280116,,Bounazzal 2,0
35.592237,-5.359150,node/8188287500,,Kallaline,0
35.761088,-5.348659,node/8197552112,,Marina 2,0
35.777713,-5.348400,node/1872001921,,Grand Hôtel,0
35.446972,-5.393782,node/6899217482,,Café Sed,0
